{
  "type": "FeatureCollection",
  "features": [
    {
      "type": "Feature",
      "geometry": {
        "type": "Point",
        "coordinates": [
          -71.150761,
          42.392568
        ]
      },
      "properties": {
        "type": "station",
        "stop_number": 1,
        "name": "101 Smith Place",
        "cumulative_distance_km": 0.0
      }
    },
    {
      "type": "Feature",
      "geometry": {
        "type": "Point",
        "coordinates": [
          -71.139019,
          42.389456
        ]
      },
      "properties": {
        "type": "station",
        "stop_number": 2,
        "name": "Danehy Park at New Street",
        "cumulative_distance_km": 1.025
      }
    },
    {
      "type": "Feature",
      "geometry": {
        "type": "Point",
        "coordinates": [
          -71.139788,
          42.396232
        ]
      },
      "properties": {
        "type": "station",
        "stop_number": 3,
        "name": "Alewife Station at Russell Field",
        "cumulative_distance_km": 1.781
      }
    },
    {
      "type": "Feature",
      "geometry": {
        "type": "Point",
        "coordinates": [
          -71.142606,
          42.395588
        ]
      },
      "properties": {
        "type": "station",
        "stop_number": 4,
        "name": "Alewife MBTA at Steel Place",
        "cumulative_distance_km": 2.023
      }
    },
    {
      "type": "Feature",
      "geometry": {
        "type": "Point",
        "coordinates": [
          -71.143941,
          42.3936
        ]
      },
      "properties": {
        "type": "station",
        "stop_number": 5,
        "name": "84 Cambridgepark Dr",
        "cumulative_distance_km": 2.27
      }
    },
    {
      "type": "Feature",
      "geometry": {
        "type": "Point",
        "coordinates": [
          -71.144219,
          42.395221
        ]
      },
      "properties": {
        "type": "station",
        "stop_number": 6,
        "name": "87-101 Cambridgepark Drive",
        "cumulative_distance_km": 2.451
      }
    },
    {
      "type": "Feature",
      "geometry": {
        "type": "Point",
        "coordinates": [
          -71.147971,
          42.397908
        ]
      },
      "properties": {
        "type": "station",
        "stop_number": 7,
        "name": "Discovery Park - 30 Acorn Park Drive",
        "cumulative_distance_km": 2.88
      }
    },
    {
      "type": "Feature",
      "geometry": {
        "type": "Point",
        "coordinates": [
          -71.144569,
          42.400168
        ]
      },
      "properties": {
        "type": "station",
        "stop_number": 8,
        "name": "Thorndike Field at Minuteman Bikeway",
        "cumulative_distance_km": 3.256
      }
    },
    {
      "type": "Feature",
      "geometry": {
        "type": "Point",
        "coordinates": [
          -71.146903,
          42.40417
        ]
      },
      "properties": {
        "type": "station",
        "stop_number": 9,
        "name": "Lake St. at Minuteman Bikeway",
        "cumulative_distance_km": 3.741
      }
    },
    {
      "type": "Feature",
      "geometry": {
        "type": "Point",
        "coordinates": [
          -71.143821,
          42.40726
        ]
      },
      "properties": {
        "type": "station",
        "stop_number": 10,
        "name": "Mass Ave at Grafton St",
        "cumulative_distance_km": 4.167
      }
    },
    {
      "type": "Feature",
      "geometry": {
        "type": "Point",
        "coordinates": [
          -71.136557,
          42.401364
        ]
      },
      "properties": {
        "type": "station",
        "stop_number": 11,
        "name": "Mass Ave at Alewife Greenway",
        "cumulative_distance_km": 5.054
      }
    },
    {
      "type": "Feature",
      "geometry": {
        "type": "Point",
        "coordinates": [
          -71.120113,
          42.396386
        ]
      },
      "properties": {
        "type": "station",
        "stop_number": 12,
        "name": "Grove St at Community Path",
        "cumulative_distance_km": 6.513
      }
    },
    {
      "type": "Feature",
      "geometry": {
        "type": "Point",
        "coordinates": [
          -71.111336,
          42.394072
        ]
      },
      "properties": {
        "type": "station",
        "stop_number": 13,
        "name": "Community Path at Cedar Street",
        "cumulative_distance_km": 7.278
      }
    },
    {
      "type": "Feature",
      "geometry": {
        "type": "Point",
        "coordinates": [
          -71.110682,
          42.388316
        ]
      },
      "properties": {
        "type": "station",
        "stop_number": 14,
        "name": "Craigie St at Summer St",
        "cumulative_distance_km": 7.921
      }
    },
    {
      "type": "Feature",
      "geometry": {
        "type": "Point",
        "coordinates": [
          -71.116941,
          42.389524
        ]
      },
      "properties": {
        "type": "station",
        "stop_number": 15,
        "name": "Elm St at White St",
        "cumulative_distance_km": 8.452
      }
    },
    {
      "type": "Feature",
      "geometry": {
        "type": "Point",
        "coordinates": [
          -71.122607,
          42.391209
        ]
      },
      "properties": {
        "type": "station",
        "stop_number": 16,
        "name": "Mass Ave at Hadley/Walden",
        "cumulative_distance_km": 8.954
      }
    },
    {
      "type": "Feature",
      "geometry": {
        "type": "Point",
        "coordinates": [
          -71.129042,
          42.392766
        ]
      },
      "properties": {
        "type": "station",
        "stop_number": 17,
        "name": "Rindge Avenue - O'Neill Library",
        "cumulative_distance_km": 9.51
      }
    },
    {
      "type": "Feature",
      "geometry": {
        "type": "Point",
        "coordinates": [
          -71.132788,
          42.388966
        ]
      },
      "properties": {
        "type": "station",
        "stop_number": 18,
        "name": "Danehy Park",
        "cumulative_distance_km": 10.032
      }
    },
    {
      "type": "Feature",
      "geometry": {
        "type": "Point",
        "coordinates": [
          -71.12761,
          42.387369
        ]
      },
      "properties": {
        "type": "station",
        "stop_number": 19,
        "name": "Raymond Park at Walden St",
        "cumulative_distance_km": 10.493
      }
    },
    {
      "type": "Feature",
      "geometry": {
        "type": "Point",
        "coordinates": [
          -71.124498,
          42.382944
        ]
      },
      "properties": {
        "type": "station",
        "stop_number": 20,
        "name": "Graham and Parks School \u2013 Linnaean St at Walker St",
        "cumulative_distance_km": 11.048
      }
    },
    {
      "type": "Feature",
      "geometry": {
        "type": "Point",
        "coordinates": [
          -71.134269,
          42.38165
        ]
      },
      "properties": {
        "type": "station",
        "stop_number": 21,
        "name": "Huron Ave At Vassal Lane",
        "cumulative_distance_km": 11.863
      }
    },
    {
      "type": "Feature",
      "geometry": {
        "type": "Point",
        "coordinates": [
          -71.154128,
          42.380788
        ]
      },
      "properties": {
        "type": "station",
        "stop_number": 22,
        "name": "700 Huron Ave",
        "cumulative_distance_km": 13.497
      }
    },
    {
      "type": "Feature",
      "geometry": {
        "type": "Point",
        "coordinates": [
          -71.148716,
          42.375002
        ]
      },
      "properties": {
        "type": "station",
        "stop_number": 23,
        "name": "699 Mt Auburn St",
        "cumulative_distance_km": 14.279
      }
    },
    {
      "type": "Feature",
      "geometry": {
        "type": "Point",
        "coordinates": [
          -71.135304,
          42.374932
        ]
      },
      "properties": {
        "type": "station",
        "stop_number": 24,
        "name": "Mt Auburn",
        "cumulative_distance_km": 15.381
      }
    },
    {
      "type": "Feature",
      "geometry": {
        "type": "Point",
        "coordinates": [
          -71.12188,
          42.372216
        ]
      },
      "properties": {
        "type": "station",
        "stop_number": 25,
        "name": "Harvard Kennedy School at Bennett St / Eliot St",
        "cumulative_distance_km": 16.524
      }
    },
    {
      "type": "Feature",
      "geometry": {
        "type": "Point",
        "coordinates": [
          -71.1242,
          42.368019
        ]
      },
      "properties": {
        "type": "station",
        "stop_number": 26,
        "name": "Harvard Stadium: N. Harvard St at Soldiers Field Rd",
        "cumulative_distance_km": 17.028
      }
    },
    {
      "type": "Feature",
      "geometry": {
        "type": "Point",
        "coordinates": [
          -71.125175,
          42.366782
        ]
      },
      "properties": {
        "type": "station",
        "stop_number": 27,
        "name": "N. Harvard St at Harvard Way",
        "cumulative_distance_km": 17.187
      }
    },
    {
      "type": "Feature",
      "geometry": {
        "type": "Point",
        "coordinates": [
          -71.128408,
          42.364474
        ]
      },
      "properties": {
        "type": "station",
        "stop_number": 28,
        "name": "175 N Harvard St",
        "cumulative_distance_km": 17.557
      }
    },
    {
      "type": "Feature",
      "geometry": {
        "type": "Point",
        "coordinates": [
          -71.134719,
          42.363168
        ]
      },
      "properties": {
        "type": "station",
        "stop_number": 29,
        "name": "Western Ave at Everett St",
        "cumulative_distance_km": 18.095
      }
    },
    {
      "type": "Feature",
      "geometry": {
        "type": "Point",
        "coordinates": [
          -71.135392,
          42.365723
        ]
      },
      "properties": {
        "type": "station",
        "stop_number": 30,
        "name": "Herter Park",
        "cumulative_distance_km": 18.385
      }
    },
    {
      "type": "Feature",
      "geometry": {
        "type": "Point",
        "coordinates": [
          -71.137762,
          42.361545
        ]
      },
      "properties": {
        "type": "station",
        "stop_number": 31,
        "name": "Brighton Mills - 370 Western Ave",
        "cumulative_distance_km": 18.888
      }
    },
    {
      "type": "Feature",
      "geometry": {
        "type": "Point",
        "coordinates": [
          -71.129675,
          42.352837
        ]
      },
      "properties": {
        "type": "station",
        "stop_number": 32,
        "name": "Brighton Ave at Linden St",
        "cumulative_distance_km": 20.063
      }
    },
    {
      "type": "Feature",
      "geometry": {
        "type": "Point",
        "coordinates": [
          -71.123831,
          42.352261
        ]
      },
      "properties": {
        "type": "station",
        "stop_number": 33,
        "name": "Packard's Corner - Commonwealth Ave at Brighton Ave",
        "cumulative_distance_km": 20.547
      }
    },
    {
      "type": "Feature",
      "geometry": {
        "type": "Point",
        "coordinates": [
          -71.123798,
          42.351911
        ]
      },
      "properties": {
        "type": "station",
        "stop_number": 34,
        "name": "Commonwealth Ave at Naples Rd",
        "cumulative_distance_km": 20.586
      }
    },
    {
      "type": "Feature",
      "geometry": {
        "type": "Point",
        "coordinates": [
          -71.121262,
          42.351547
        ]
      },
      "properties": {
        "type": "station",
        "stop_number": 35,
        "name": "Commonwealth Ave At Babcock St",
        "cumulative_distance_km": 20.799
      }
    },
    {
      "type": "Feature",
      "geometry": {
        "type": "Point",
        "coordinates": [
          -71.119034,
          42.351692
        ]
      },
      "properties": {
        "type": "station",
        "stop_number": 36,
        "name": "Commonwealth Ave at Agganis Way",
        "cumulative_distance_km": 20.982
      }
    },
    {
      "type": "Feature",
      "geometry": {
        "type": "Point",
        "coordinates": [
          -71.113871,
          42.357218
        ]
      },
      "properties": {
        "type": "station",
        "stop_number": 37,
        "name": "Lower Cambridgeport at Magazine St / Riverside Rd",
        "cumulative_distance_km": 21.729
      }
    },
    {
      "type": "Feature",
      "geometry": {
        "type": "Point",
        "coordinates": [
          -71.108099,
          42.36178
        ]
      },
      "properties": {
        "type": "station",
        "stop_number": 38,
        "name": "Dana Park",
        "cumulative_distance_km": 22.423
      }
    },
    {
      "type": "Feature",
      "geometry": {
        "type": "Point",
        "coordinates": [
          -71.108413,
          42.357662
        ]
      },
      "properties": {
        "type": "station",
        "stop_number": 39,
        "name": "Old Morse Park at Putnam Ave",
        "cumulative_distance_km": 22.882
      }
    },
    {
      "type": "Feature",
      "geometry": {
        "type": "Point",
        "coordinates": [
          -71.103944,
          42.355601
        ]
      },
      "properties": {
        "type": "station",
        "stop_number": 40,
        "name": "MIT Vassar St",
        "cumulative_distance_km": 23.315
      }
    },
    {
      "type": "Feature",
      "geometry": {
        "type": "Point",
        "coordinates": [
          -71.088012,
          42.34752
        ]
      },
      "properties": {
        "type": "station",
        "stop_number": 41,
        "name": "Massachusetts Ave at Boylston St.",
        "cumulative_distance_km": 24.903
      }
    },
    {
      "type": "Feature",
      "geometry": {
        "type": "Point",
        "coordinates": [
          -71.086784,
          42.347406
        ]
      },
      "properties": {
        "type": "station",
        "stop_number": 42,
        "name": "Boylston St at Massachusetts Ave",
        "cumulative_distance_km": 25.005
      }
    },
    {
      "type": "Feature",
      "geometry": {
        "type": "Point",
        "coordinates": [
          -71.085954,
          42.348717
        ]
      },
      "properties": {
        "type": "station",
        "stop_number": 43,
        "name": "Newbury St at Hereford St",
        "cumulative_distance_km": 25.166
      }
    },
    {
      "type": "Feature",
      "geometry": {
        "type": "Point",
        "coordinates": [
          -71.085823,
          42.343665
        ]
      },
      "properties": {
        "type": "station",
        "stop_number": 44,
        "name": "Christian Science Plaza - Massachusetts Ave at Westland Ave",
        "cumulative_distance_km": 25.727
      }
    },
    {
      "type": "Feature",
      "geometry": {
        "type": "Point",
        "coordinates": [
          -71.083369,
          42.341356
        ]
      },
      "properties": {
        "type": "station",
        "stop_number": 45,
        "name": "Mass Ave T Station",
        "cumulative_distance_km": 26.054
      }
    },
    {
      "type": "Feature",
      "geometry": {
        "type": "Point",
        "coordinates": [
          -71.08255,
          42.337594
        ]
      },
      "properties": {
        "type": "station",
        "stop_number": 46,
        "name": "Lenox St at Kendall St",
        "cumulative_distance_km": 26.478
      }
    },
    {
      "type": "Feature",
      "geometry": {
        "type": "Point",
        "coordinates": [
          -71.083865,
          42.329842
        ]
      },
      "properties": {
        "type": "station",
        "stop_number": 47,
        "name": "Nubian Square - Bolling Building",
        "cumulative_distance_km": 27.346
      }
    },
    {
      "type": "Feature",
      "geometry": {
        "type": "Point",
        "coordinates": [
          -71.081198,
          42.332817
        ]
      },
      "properties": {
        "type": "station",
        "stop_number": 48,
        "name": "Washington St at Melnea Cass Blvd",
        "cumulative_distance_km": 27.743
      }
    },
    {
      "type": "Feature",
      "geometry": {
        "type": "Point",
        "coordinates": [
          -71.077564,
          42.336258
        ]
      },
      "properties": {
        "type": "station",
        "stop_number": 49,
        "name": "Washington St at Northampton St",
        "cumulative_distance_km": 28.229
      }
    },
    {
      "type": "Feature",
      "geometry": {
        "type": "Point",
        "coordinates": [
          -71.073067,
          42.336399
        ]
      },
      "properties": {
        "type": "station",
        "stop_number": 50,
        "name": "Boston Medical Center - E Concord St at Harrison Ave",
        "cumulative_distance_km": 28.599
      }
    },
    {
      "type": "Feature",
      "geometry": {
        "type": "Point",
        "coordinates": [
          -71.07404,
          42.338514
        ]
      },
      "properties": {
        "type": "station",
        "stop_number": 51,
        "name": "Washington St at Rutland St",
        "cumulative_distance_km": 28.847
      }
    },
    {
      "type": "Feature",
      "geometry": {
        "type": "Point",
        "coordinates": [
          -71.071799,
          42.340335
        ]
      },
      "properties": {
        "type": "station",
        "stop_number": 52,
        "name": "Washington St at W Dedham St",
        "cumulative_distance_km": 29.121
      }
    },
    {
      "type": "Feature",
      "geometry": {
        "type": "Point",
        "coordinates": [
          -71.068904,
          42.341574
        ]
      },
      "properties": {
        "type": "station",
        "stop_number": 53,
        "name": "Washington St at Waltham St",
        "cumulative_distance_km": 29.396
      }
    },
    {
      "type": "Feature",
      "geometry": {
        "type": "Point",
        "coordinates": [
          -71.067052,
          42.342958
        ]
      },
      "properties": {
        "type": "station",
        "stop_number": 54,
        "name": "Washington St at Peters Park",
        "cumulative_distance_km": 29.612
      }
    },
    {
      "type": "Feature",
      "geometry": {
        "type": "Point",
        "coordinates": [
          -71.06702,
          42.344607
        ]
      },
      "properties": {
        "type": "station",
        "stop_number": 55,
        "name": "Shawmut Ave at E Berkeley St",
        "cumulative_distance_km": 29.795
      }
    },
    {
      "type": "Feature",
      "geometry": {
        "type": "Point",
        "coordinates": [
          -71.06384,
          42.345215
        ]
      },
      "properties": {
        "type": "station",
        "stop_number": 56,
        "name": "Harrison Ave at Mullins Way",
        "cumulative_distance_km": 30.065
      }
    },
    {
      "type": "Feature",
      "geometry": {
        "type": "Point",
        "coordinates": [
          -71.063187,
          42.345901
        ]
      },
      "properties": {
        "type": "station",
        "stop_number": 57,
        "name": "Ink Block - Harrison Ave at Herald St",
        "cumulative_distance_km": 30.159
      }
    },
    {
      "type": "Feature",
      "geometry": {
        "type": "Point",
        "coordinates": [
          -71.065591,
          42.348545
        ]
      },
      "properties": {
        "type": "station",
        "stop_number": 58,
        "name": "Shawmut Ave at Oak St W",
        "cumulative_distance_km": 30.513
      }
    },
    {
      "type": "Feature",
      "geometry": {
        "type": "Point",
        "coordinates": [
          -71.066049,
          42.346647
        ]
      },
      "properties": {
        "type": "station",
        "stop_number": 59,
        "name": "Shawmut Ave at Herald St",
        "cumulative_distance_km": 30.727
      }
    },
    {
      "type": "Feature",
      "geometry": {
        "type": "Point",
        "coordinates": [
          -71.069616,
          42.345392
        ]
      },
      "properties": {
        "type": "station",
        "stop_number": 60,
        "name": "Tremont St at E Berkeley St",
        "cumulative_distance_km": 31.052
      }
    },
    {
      "type": "Feature",
      "geometry": {
        "type": "Point",
        "coordinates": [
          -71.07242,
          42.349544
        ]
      },
      "properties": {
        "type": "station",
        "stop_number": 61,
        "name": "Stuart St at Berkeley St",
        "cumulative_distance_km": 31.568
      }
    },
    {
      "type": "Feature",
      "geometry": {
        "type": "Point",
        "coordinates": [
          -71.07657,
          42.348074
        ]
      },
      "properties": {
        "type": "station",
        "stop_number": 62,
        "name": "Back Bay T Stop - Dartmouth St at Stuart St",
        "cumulative_distance_km": 31.946
      }
    },
    {
      "type": "Feature",
      "geometry": {
        "type": "Point",
        "coordinates": [
          -71.077392,
          42.349928
        ]
      },
      "properties": {
        "type": "station",
        "stop_number": 63,
        "name": "Copley Square - Dartmouth St at Boylston St",
        "cumulative_distance_km": 32.163
      }
    },
    {
      "type": "Feature",
      "geometry": {
        "type": "Point",
        "coordinates": [
          -71.077505,
          42.350287
        ]
      },
      "properties": {
        "type": "station",
        "stop_number": 64,
        "name": "Boylston St at Dartmouth St",
        "cumulative_distance_km": 32.204
      }
    },
    {
      "type": "Feature",
      "geometry": {
        "type": "Point",
        "coordinates": [
          -71.077828,
          42.350961
        ]
      },
      "properties": {
        "type": "station",
        "stop_number": 65,
        "name": "Dartmouth St at Newbury St",
        "cumulative_distance_km": 32.284
      }
    },
    {
      "type": "Feature",
      "geometry": {
        "type": "Point",
        "coordinates": [
          -71.075616,
          42.351596
        ]
      },
      "properties": {
        "type": "station",
        "stop_number": 66,
        "name": "Clarendon St at Newbury St",
        "cumulative_distance_km": 32.479
      }
    },
    {
      "type": "Feature",
      "geometry": {
        "type": "Point",
        "coordinates": [
          -71.073292,
          42.351141
        ]
      },
      "properties": {
        "type": "station",
        "stop_number": 67,
        "name": "Boylston St at Berkeley St",
        "cumulative_distance_km": 32.676
      }
    },
    {
      "type": "Feature",
      "geometry": {
        "type": "Point",
        "coordinates": [
          -71.07022,
          42.352095
        ]
      },
      "properties": {
        "type": "station",
        "stop_number": 68,
        "name": "Boylston St at Arlington St",
        "cumulative_distance_km": 32.95
      }
    },
    {
      "type": "Feature",
      "geometry": {
        "type": "Point",
        "coordinates": [
          -71.067811,
          42.351828
        ]
      },
      "properties": {
        "type": "station",
        "stop_number": 69,
        "name": "Park Plaza at Charles St S.",
        "cumulative_distance_km": 33.15
      }
    },
    {
      "type": "Feature",
      "geometry": {
        "type": "Point",
        "coordinates": [
          -71.066289,
          42.351146
        ]
      },
      "properties": {
        "type": "station",
        "stop_number": 70,
        "name": "Stuart St at Charles St",
        "cumulative_distance_km": 33.296
      }
    },
    {
      "type": "Feature",
      "geometry": {
        "type": "Point",
        "coordinates": [
          -71.066694,
          42.350777
        ]
      },
      "properties": {
        "type": "station",
        "stop_number": 71,
        "name": "Charles St S at Stuart St",
        "cumulative_distance_km": 33.349
      }
    },
    {
      "type": "Feature",
      "geometry": {
        "type": "Point",
        "coordinates": [
          -71.062099,
          42.349426
        ]
      },
      "properties": {
        "type": "station",
        "stop_number": 72,
        "name": "Harrison Ave at Bennet St",
        "cumulative_distance_km": 33.756
      }
    },
    {
      "type": "Feature",
      "geometry": {
        "type": "Point",
        "coordinates": [
          -71.059367,
          42.351356
        ]
      },
      "properties": {
        "type": "station",
        "stop_number": 73,
        "name": "Chinatown Gate Plaza",
        "cumulative_distance_km": 34.066
      }
    },
    {
      "type": "Feature",
      "geometry": {
        "type": "Point",
        "coordinates": [
          -71.056222,
          42.353527
        ]
      },
      "properties": {
        "type": "station",
        "stop_number": 74,
        "name": "High St at Federal St",
        "cumulative_distance_km": 34.42
      }
    },
    {
      "type": "Feature",
      "geometry": {
        "type": "Point",
        "coordinates": [
          -71.056564,
          42.352945
        ]
      },
      "properties": {
        "type": "station",
        "stop_number": 75,
        "name": "Surface Rd at Summer St",
        "cumulative_distance_km": 34.49
      }
    },
    {
      "type": "Feature",
      "geometry": {
        "type": "Point",
        "coordinates": [
          -71.055547,
          42.352175
        ]
      },
      "properties": {
        "type": "station",
        "stop_number": 76,
        "name": "South Station - 700 Atlantic Ave",
        "cumulative_distance_km": 34.61
      }
    },
    {
      "type": "Feature",
      "geometry": {
        "type": "Point",
        "coordinates": [
          -71.052608,
          42.344137
        ]
      },
      "properties": {
        "type": "station",
        "stop_number": 77,
        "name": "State Street at Channel Center",
        "cumulative_distance_km": 35.536
      }
    },
    {
      "type": "Feature",
      "geometry": {
        "type": "Point",
        "coordinates": [
          -71.048935,
          42.349784
        ]
      },
      "properties": {
        "type": "station",
        "stop_number": 78,
        "name": "300 Summer St",
        "cumulative_distance_km": 36.233
      }
    },
    {
      "type": "Feature",
      "geometry": {
        "type": "Point",
        "coordinates": [
          -71.055497,
          42.356775
        ]
      },
      "properties": {
        "type": "station",
        "stop_number": 79,
        "name": "Pearl St at Milk St",
        "cumulative_distance_km": 37.179
      }
    },
    {
      "type": "Feature",
      "geometry": {
        "type": "Point",
        "coordinates": [
          -71.057629,
          42.35892
        ]
      },
      "properties": {
        "type": "station",
        "stop_number": 80,
        "name": "Boston City Hall - 28 State St",
        "cumulative_distance_km": 37.475
      }
    },
    {
      "type": "Feature",
      "geometry": {
        "type": "Point",
        "coordinates": [
          -71.057522,
          42.360417
        ]
      },
      "properties": {
        "type": "station",
        "stop_number": 81,
        "name": "Congress St at Boston City Hall",
        "cumulative_distance_km": 37.641
      }
    },
    {
      "type": "Feature",
      "geometry": {
        "type": "Point",
        "coordinates": [
          -71.056067,
          42.362811
        ]
      },
      "properties": {
        "type": "station",
        "stop_number": 82,
        "name": "Cross St at Hanover St",
        "cumulative_distance_km": 37.933
      }
    },
    {
      "type": "Feature",
      "geometry": {
        "type": "Point",
        "coordinates": [
          -71.057493,
          42.363707
        ]
      },
      "properties": {
        "type": "station",
        "stop_number": 83,
        "name": "Cross St at Stillman St",
        "cumulative_distance_km": 38.087
      }
    },
    {
      "type": "Feature",
      "geometry": {
        "type": "Point",
        "coordinates": [
          -71.059349,
          42.364738
        ]
      },
      "properties": {
        "type": "station",
        "stop_number": 84,
        "name": "Valenti Way at Haverhill St",
        "cumulative_distance_km": 38.278
      }
    },
    {
      "type": "Feature",
      "geometry": {
        "type": "Point",
        "coordinates": [
          -71.060788,
          42.365188
        ]
      },
      "properties": {
        "type": "station",
        "stop_number": 85,
        "name": "Canal St at Causeway St",
        "cumulative_distance_km": 38.406
      }
    },
    {
      "type": "Feature",
      "geometry": {
        "type": "Point",
        "coordinates": [
          -71.056847,
          42.36817
        ]
      },
      "properties": {
        "type": "station",
        "stop_number": 86,
        "name": "Commercial St at Charter St",
        "cumulative_distance_km": 38.869
      }
    },
    {
      "type": "Feature",
      "geometry": {
        "type": "Point",
        "coordinates": [
          -71.064157,
          42.365858
        ]
      },
      "properties": {
        "type": "station",
        "stop_number": 87,
        "name": "Nashua Street at Red Auerbach Way [Extension]",
        "cumulative_distance_km": 39.523
      }
    },
    {
      "type": "Feature",
      "geometry": {
        "type": "Point",
        "coordinates": [
          -71.064263,
          42.365673
        ]
      },
      "properties": {
        "type": "station",
        "stop_number": 88,
        "name": "Nashua Street at Red Auerbach Way",
        "cumulative_distance_km": 39.545
      }
    },
    {
      "type": "Feature",
      "geometry": {
        "type": "Point",
        "coordinates": [
          -71.076198,
          42.371141
        ]
      },
      "properties": {
        "type": "station",
        "stop_number": 89,
        "name": "Cambridge Crossing at North First Street",
        "cumulative_distance_km": 40.699
      }
    },
    {
      "type": "Feature",
      "geometry": {
        "type": "Point",
        "coordinates": [
          -71.076638,
          42.370982
        ]
      },
      "properties": {
        "type": "station",
        "stop_number": 90,
        "name": "O'Brien Highway at First Street",
        "cumulative_distance_km": 40.739
      }
    },
    {
      "type": "Feature",
      "geometry": {
        "type": "Point",
        "coordinates": [
          -71.075858,
          42.371977
        ]
      },
      "properties": {
        "type": "station",
        "stop_number": 91,
        "name": "Morgan Ave at North First St",
        "cumulative_distance_km": 40.867
      }
    },
    {
      "type": "Feature",
      "geometry": {
        "type": "Point",
        "coordinates": [
          -71.086437,
          42.379609
        ]
      },
      "properties": {
        "type": "station",
        "stop_number": 92,
        "name": "Innerbelt at East Somerville Station",
        "cumulative_distance_km": 42.082
      }
    },
    {
      "type": "Feature",
      "geometry": {
        "type": "Point",
        "coordinates": [
          -71.085954,
          42.377636
        ]
      },
      "properties": {
        "type": "station",
        "stop_number": 93,
        "name": "Chestnut St at Poplar St",
        "cumulative_distance_km": 42.304
      }
    },
    {
      "type": "Feature",
      "geometry": {
        "type": "Point",
        "coordinates": [
          -71.086342,
          42.373079
        ]
      },
      "properties": {
        "type": "station",
        "stop_number": 94,
        "name": "Gore Street at Lambert Street",
        "cumulative_distance_km": 42.812
      }
    },
    {
      "type": "Feature",
      "geometry": {
        "type": "Point",
        "coordinates": [
          -71.086336,
          42.366087
        ]
      },
      "properties": {
        "type": "station",
        "stop_number": 95,
        "name": "Binney St / Sixth St",
        "cumulative_distance_km": 43.59
      }
    },
    {
      "type": "Feature",
      "geometry": {
        "type": "Point",
        "coordinates": [
          -71.087386,
          42.364126
        ]
      },
      "properties": {
        "type": "station",
        "stop_number": 96,
        "name": "Broadway at Kittie Knox Bike Path",
        "cumulative_distance_km": 43.824
      }
    },
    {
      "type": "Feature",
      "geometry": {
        "type": "Point",
        "coordinates": [
          -71.087567,
          42.363692
        ]
      },
      "properties": {
        "type": "station",
        "stop_number": 97,
        "name": "Ames St at Broadway",
        "cumulative_distance_km": 43.875
      }
    },
    {
      "type": "Feature",
      "geometry": {
        "type": "Point",
        "coordinates": [
          -71.091566,
          42.362901
        ]
      },
      "properties": {
        "type": "station",
        "stop_number": 98,
        "name": "Main Street/Albany Street/Technology Square",
        "cumulative_distance_km": 44.215
      }
    },
    {
      "type": "Feature",
      "geometry": {
        "type": "Point",
        "coordinates": [
          -71.100441,
          42.363564
        ]
      },
      "properties": {
        "type": "station",
        "stop_number": 99,
        "name": "Mass Ave/Lafayette Square",
        "cumulative_distance_km": 44.948
      }
    },
    {
      "type": "Feature",
      "geometry": {
        "type": "Point",
        "coordinates": [
          -71.1031,
          42.36507
        ]
      },
      "properties": {
        "type": "station",
        "stop_number": 100,
        "name": "Central Square at Mass Ave / Essex St",
        "cumulative_distance_km": 45.223
      }
    },
    {
      "type": "Feature",
      "geometry": {
        "type": "Point",
        "coordinates": [
          -71.093198,
          42.3581
        ]
      },
      "properties": {
        "type": "station",
        "stop_number": 101,
        "name": "MIT at Mass Ave / Amherst St",
        "cumulative_distance_km": 46.347
      }
    },
    {
      "type": "Feature",
      "geometry": {
        "type": "Point",
        "coordinates": [
          -71.08981,
          42.350826
        ]
      },
      "properties": {
        "type": "station",
        "stop_number": 102,
        "name": "Beacon St at Massachusetts Ave",
        "cumulative_distance_km": 47.202
      }
    },
    {
      "type": "Feature",
      "geometry": {
        "type": "Point",
        "coordinates": [
          -71.082369,
          42.348803
        ]
      },
      "properties": {
        "type": "station",
        "stop_number": 103,
        "name": "Boylston St at Fairfield St",
        "cumulative_distance_km": 47.854
      }
    },
    {
      "type": "Feature",
      "geometry": {
        "type": "Point",
        "coordinates": [
          -71.079467,
          42.349589
        ]
      },
      "properties": {
        "type": "station",
        "stop_number": 104,
        "name": "Boylston St at Exeter St",
        "cumulative_distance_km": 48.108
      }
    },
    {
      "type": "Feature",
      "geometry": {
        "type": "Point",
        "coordinates": [
          -71.072868,
          42.355536
        ]
      },
      "properties": {
        "type": "station",
        "stop_number": 105,
        "name": "Mugar Way at Beacon St",
        "cumulative_distance_km": 48.963
      }
    },
    {
      "type": "Feature",
      "geometry": {
        "type": "Point",
        "coordinates": [
          -71.069849,
          42.356052
        ]
      },
      "properties": {
        "type": "station",
        "stop_number": 106,
        "name": "Beacon St at Charles St",
        "cumulative_distance_km": 49.217
      }
    },
    {
      "type": "Feature",
      "geometry": {
        "type": "Point",
        "coordinates": [
          -71.062457,
          42.356627
        ]
      },
      "properties": {
        "type": "station",
        "stop_number": 107,
        "name": "Park Street T Stop - Tremont St at Park St",
        "cumulative_distance_km": 49.828
      }
    },
    {
      "type": "Feature",
      "geometry": {
        "type": "Point",
        "coordinates": [
          -71.061666,
          42.356683
        ]
      },
      "properties": {
        "type": "station",
        "stop_number": 108,
        "name": "Tremont St at Hamilton Pl",
        "cumulative_distance_km": 49.893
      }
    },
    {
      "type": "Feature",
      "geometry": {
        "type": "Point",
        "coordinates": [
          -71.05971,
          42.359086
        ]
      },
      "properties": {
        "type": "station",
        "stop_number": 109,
        "name": "Tremont St at Court St",
        "cumulative_distance_km": 50.205
      }
    },
    {
      "type": "Feature",
      "geometry": {
        "type": "Point",
        "coordinates": [
          -71.059795,
          42.359825
        ]
      },
      "properties": {
        "type": "station",
        "stop_number": 110,
        "name": "Government Center - Cambridge St at Court St",
        "cumulative_distance_km": 50.288
      }
    },
    {
      "type": "Feature",
      "geometry": {
        "type": "Point",
        "coordinates": [
          -71.050877,
          42.363871
        ]
      },
      "properties": {
        "type": "station",
        "stop_number": 111,
        "name": "Lewis Wharf at Atlantic Ave",
        "cumulative_distance_km": 51.148
      }
    },
    {
      "type": "Feature",
      "geometry": {
        "type": "Point",
        "coordinates": [
          -71.0516,
          42.35986
        ]
      },
      "properties": {
        "type": "station",
        "stop_number": 112,
        "name": "Aquarium T Stop - 200 Atlantic Ave",
        "cumulative_distance_km": 51.597
      }
    },
    {
      "type": "Feature",
      "geometry": {
        "type": "Point",
        "coordinates": [
          -71.052602,
          42.359743
        ]
      },
      "properties": {
        "type": "station",
        "stop_number": 113,
        "name": "Surface Rd at State Street",
        "cumulative_distance_km": 51.681
      }
    },
    {
      "type": "Feature",
      "geometry": {
        "type": "Point",
        "coordinates": [
          -71.054597,
          42.355854
        ]
      },
      "properties": {
        "type": "station",
        "stop_number": 114,
        "name": "Post Office Square",
        "cumulative_distance_km": 52.143
      }
    },
    {
      "type": "Feature",
      "geometry": {
        "type": "Point",
        "coordinates": [
          -71.053181,
          42.354659
        ]
      },
      "properties": {
        "type": "station",
        "stop_number": 115,
        "name": "Purchase St at Pearl St",
        "cumulative_distance_km": 52.32
      }
    },
    {
      "type": "Feature",
      "geometry": {
        "type": "Point",
        "coordinates": [
          -71.0493,
          42.351004
        ]
      },
      "properties": {
        "type": "station",
        "stop_number": 116,
        "name": "Congress St at Sleeper St",
        "cumulative_distance_km": 52.836
      }
    },
    {
      "type": "Feature",
      "geometry": {
        "type": "Point",
        "coordinates": [
          -71.04467,
          42.35021
        ]
      },
      "properties": {
        "type": "station",
        "stop_number": 117,
        "name": "Pier 4 Blvd at Autumn Ln",
        "cumulative_distance_km": 53.227
      }
    },
    {
      "type": "Feature",
      "geometry": {
        "type": "Point",
        "coordinates": [
          -71.041677,
          42.34881
        ]
      },
      "properties": {
        "type": "station",
        "stop_number": 118,
        "name": "Seaport Hotel - Congress St at Seaport Ln",
        "cumulative_distance_km": 53.518
      }
    },
    {
      "type": "Feature",
      "geometry": {
        "type": "Point",
        "coordinates": [
          -71.03764,
          42.3481
        ]
      },
      "properties": {
        "type": "station",
        "stop_number": 119,
        "name": "Congress St at Northern Ave",
        "cumulative_distance_km": 53.859
      }
    },
    {
      "type": "Feature",
      "geometry": {
        "type": "Point",
        "coordinates": [
          -71.035796,
          42.347181
        ]
      },
      "properties": {
        "type": "station",
        "stop_number": 120,
        "name": "Northern Ave at Haul Rd",
        "cumulative_distance_km": 54.042
      }
    },
    {
      "type": "Feature",
      "geometry": {
        "type": "Point",
        "coordinates": [
          -71.029199,
          42.3461
        ]
      },
      "properties": {
        "type": "station",
        "stop_number": 121,
        "name": "Au Bon Pain Way at Fid Kennedy Ave",
        "cumulative_distance_km": 54.597
      }
    },
    {
      "type": "Feature",
      "geometry": {
        "type": "Point",
        "coordinates": [
          -71.031614,
          42.344796
        ]
      },
      "properties": {
        "type": "station",
        "stop_number": 122,
        "name": "ID Building West",
        "cumulative_distance_km": 54.843
      }
    },
    {
      "type": "Feature",
      "geometry": {
        "type": "Point",
        "coordinates": [
          -71.028664,
          42.344827
        ]
      },
      "properties": {
        "type": "station",
        "stop_number": 123,
        "name": "ID Building East",
        "cumulative_distance_km": 55.086
      }
    },
    {
      "type": "Feature",
      "geometry": {
        "type": "Point",
        "coordinates": [
          -71.036453,
          42.345143
        ]
      },
      "properties": {
        "type": "station",
        "stop_number": 124,
        "name": "Harbor St at Channel St",
        "cumulative_distance_km": 55.727
      }
    },
    {
      "type": "Feature",
      "geometry": {
        "type": "Point",
        "coordinates": [
          -71.03987,
          42.34178
        ]
      },
      "properties": {
        "type": "station",
        "stop_number": 125,
        "name": "645 Summer St",
        "cumulative_distance_km": 56.194
      }
    },
    {
      "type": "Feature",
      "geometry": {
        "type": "Point",
        "coordinates": [
          -71.045359,
          42.347763
        ]
      },
      "properties": {
        "type": "station",
        "stop_number": 126,
        "name": "Boston Convention and Exhibition Center - Summer St at West Side Dr",
        "cumulative_distance_km": 56.998
      }
    },
    {
      "type": "Feature",
      "geometry": {
        "type": "Point",
        "coordinates": [
          -71.044024,
          42.344792
        ]
      },
      "properties": {
        "type": "station",
        "stop_number": 127,
        "name": "The Lawn on D",
        "cumulative_distance_km": 57.346
      }
    },
    {
      "type": "Feature",
      "geometry": {
        "type": "Point",
        "coordinates": [
          -71.051443,
          42.339108
        ]
      },
      "properties": {
        "type": "station",
        "stop_number": 128,
        "name": "W Broadway at D St",
        "cumulative_distance_km": 58.224
      }
    },
    {
      "type": "Feature",
      "geometry": {
        "type": "Point",
        "coordinates": [
          -71.058034,
          42.343048
        ]
      },
      "properties": {
        "type": "station",
        "stop_number": 129,
        "name": "Broadway T Stop",
        "cumulative_distance_km": 58.921
      }
    },
    {
      "type": "Feature",
      "geometry": {
        "type": "Point",
        "coordinates": [
          -71.057376,
          42.34404
        ]
      },
      "properties": {
        "type": "station",
        "stop_number": 130,
        "name": "Dorchester Ave at Gillette Park",
        "cumulative_distance_km": 59.044
      }
    },
    {
      "type": "Feature",
      "geometry": {
        "type": "Point",
        "coordinates": [
          -71.062256,
          42.343749
        ]
      },
      "properties": {
        "type": "station",
        "stop_number": 131,
        "name": "Troy Boston",
        "cumulative_distance_km": 59.446
      }
    },
    {
      "type": "Feature",
      "geometry": {
        "type": "Point",
        "coordinates": [
          -71.06975,
          42.339194
        ]
      },
      "properties": {
        "type": "station",
        "stop_number": 132,
        "name": "Harrison Ave at E. Dedham St",
        "cumulative_distance_km": 60.244
      }
    },
    {
      "type": "Feature",
      "geometry": {
        "type": "Point",
        "coordinates": [
          -71.068944,
          42.336647
        ]
      },
      "properties": {
        "type": "station",
        "stop_number": 133,
        "name": "Albany St at E. Brookline St",
        "cumulative_distance_km": 60.535
      }
    },
    {
      "type": "Feature",
      "geometry": {
        "type": "Point",
        "coordinates": [
          -71.075188,
          42.333586
        ]
      },
      "properties": {
        "type": "station",
        "stop_number": 134,
        "name": "Northampton St at Fellows St",
        "cumulative_distance_km": 61.15
      }
    },
    {
      "type": "Feature",
      "geometry": {
        "type": "Point",
        "coordinates": [
          -71.079037,
          42.335098
        ]
      },
      "properties": {
        "type": "station",
        "stop_number": 135,
        "name": "Washington St at Lenox St",
        "cumulative_distance_km": 61.509
      }
    },
    {
      "type": "Feature",
      "geometry": {
        "type": "Point",
        "coordinates": [
          -71.080381,
          42.335846
        ]
      },
      "properties": {
        "type": "station",
        "stop_number": 136,
        "name": "Shawmut Ave at Lenox St",
        "cumulative_distance_km": 61.647
      }
    },
    {
      "type": "Feature",
      "geometry": {
        "type": "Point",
        "coordinates": [
          -71.090179,
          42.341814
        ]
      },
      "properties": {
        "type": "station",
        "stop_number": 137,
        "name": "Northeastern University - North Parking Lot",
        "cumulative_distance_km": 62.691
      }
    },
    {
      "type": "Feature",
      "geometry": {
        "type": "Point",
        "coordinates": [
          -71.090688,
          42.34002
        ]
      },
      "properties": {
        "type": "station",
        "stop_number": 138,
        "name": "Forsyth St at Huntington Ave",
        "cumulative_distance_km": 62.894
      }
    },
    {
      "type": "Feature",
      "geometry": {
        "type": "Point",
        "coordinates": [
          -71.092188,
          42.332862
        ]
      },
      "properties": {
        "type": "station",
        "stop_number": 139,
        "name": "Whittier St Health Center",
        "cumulative_distance_km": 63.7
      }
    },
    {
      "type": "Feature",
      "geometry": {
        "type": "Point",
        "coordinates": [
          -71.090158,
          42.329463
        ]
      },
      "properties": {
        "type": "station",
        "stop_number": 140,
        "name": "Bartlett St at John Elliot Sq",
        "cumulative_distance_km": 64.113
      }
    },
    {
      "type": "Feature",
      "geometry": {
        "type": "Point",
        "coordinates": [
          -71.095171,
          42.331184
        ]
      },
      "properties": {
        "type": "station",
        "stop_number": 141,
        "name": "Roxbury Crossing T Stop - Columbus Ave at Tremont St",
        "cumulative_distance_km": 64.567
      }
    },
    {
      "type": "Feature",
      "geometry": {
        "type": "Point",
        "coordinates": [
          -71.101246,
          42.333292
        ]
      },
      "properties": {
        "type": "station",
        "stop_number": 142,
        "name": "St. Alphonsus St at Tremont St",
        "cumulative_distance_km": 65.119
      }
    },
    {
      "type": "Feature",
      "geometry": {
        "type": "Point",
        "coordinates": [
          -71.104465,
          42.333922
        ]
      },
      "properties": {
        "type": "station",
        "stop_number": 143,
        "name": "One Brigham Circle",
        "cumulative_distance_km": 65.393
      }
    },
    {
      "type": "Feature",
      "geometry": {
        "type": "Point",
        "coordinates": [
          -71.110046,
          42.33661
        ]
      },
      "properties": {
        "type": "station",
        "stop_number": 144,
        "name": "Riverway at Brookline Ave",
        "cumulative_distance_km": 65.94
      }
    },
    {
      "type": "Feature",
      "geometry": {
        "type": "Point",
        "coordinates": [
          -71.116266,
          42.332743
        ]
      },
      "properties": {
        "type": "station",
        "stop_number": 145,
        "name": "Brookline Village - Station Street at MBTA",
        "cumulative_distance_km": 66.608
      }
    },
    {
      "type": "Feature",
      "geometry": {
        "type": "Point",
        "coordinates": [
          -71.120705,
          42.340122
        ]
      },
      "properties": {
        "type": "station",
        "stop_number": 146,
        "name": "Marion St at Harvard St",
        "cumulative_distance_km": 67.506
      }
    },
    {
      "type": "Feature",
      "geometry": {
        "type": "Point",
        "coordinates": [
          -71.114673,
          42.344148
        ]
      },
      "properties": {
        "type": "station",
        "stop_number": 147,
        "name": "1200 Beacon St",
        "cumulative_distance_km": 68.174
      }
    },
    {
      "type": "Feature",
      "geometry": {
        "type": "Point",
        "coordinates": [
          -71.123338,
          42.341598
        ]
      },
      "properties": {
        "type": "station",
        "stop_number": 148,
        "name": "Coolidge Corner - Beacon St at Centre St",
        "cumulative_distance_km": 68.941
      }
    },
    {
      "type": "Feature",
      "geometry": {
        "type": "Point",
        "coordinates": [
          -71.124903,
          42.344351
        ]
      },
      "properties": {
        "type": "station",
        "stop_number": 149,
        "name": "Harvard St and Stedman St",
        "cumulative_distance_km": 69.273
      }
    },
    {
      "type": "Feature",
      "geometry": {
        "type": "Point",
        "coordinates": [
          -71.128332,
          42.346551
        ]
      },
      "properties": {
        "type": "station",
        "stop_number": 150,
        "name": "JFK Crossing at Harvard St. / Thorndike St.",
        "cumulative_distance_km": 69.646
      }
    },
    {
      "type": "Feature",
      "geometry": {
        "type": "Point",
        "coordinates": [
          -71.130227,
          42.34953
        ]
      },
      "properties": {
        "type": "station",
        "stop_number": 151,
        "name": "Harvard Ave at Brainerd Rd",
        "cumulative_distance_km": 70.012
      }
    },
    {
      "type": "Feature",
      "geometry": {
        "type": "Point",
        "coordinates": [
          -71.132753,
          42.349224
        ]
      },
      "properties": {
        "type": "station",
        "stop_number": 152,
        "name": "Commonwealth Ave at Griggs St",
        "cumulative_distance_km": 70.222
      }
    },
    {
      "type": "Feature",
      "geometry": {
        "type": "Point",
        "coordinates": [
          -71.135675,
          42.347755
        ]
      },
      "properties": {
        "type": "station",
        "stop_number": 153,
        "name": "Walbridge St at Commonwealth Ave",
        "cumulative_distance_km": 70.513
      }
    },
    {
      "type": "Feature",
      "geometry": {
        "type": "Point",
        "coordinates": [
          -71.139972,
          42.348358
        ]
      },
      "properties": {
        "type": "station",
        "stop_number": 154,
        "name": "Commonwealth Ave at Kelton St",
        "cumulative_distance_km": 70.872
      }
    },
    {
      "type": "Feature",
      "geometry": {
        "type": "Point",
        "coordinates": [
          -71.141902,
          42.345865
        ]
      },
      "properties": {
        "type": "station",
        "stop_number": 155,
        "name": "Commonwealth Ave at Fidelis Way",
        "cumulative_distance_km": 71.192
      }
    },
    {
      "type": "Feature",
      "geometry": {
        "type": "Point",
        "coordinates": [
          -71.141278,
          42.342868
        ]
      },
      "properties": {
        "type": "station",
        "stop_number": 156,
        "name": "Washington St at Egremont Rd",
        "cumulative_distance_km": 71.529
      }
    },
    {
      "type": "Feature",
      "geometry": {
        "type": "Point",
        "coordinates": [
          -71.145498,
          42.34679
        ]
      },
      "properties": {
        "type": "station",
        "stop_number": 157,
        "name": "The Overlook at St. Gabriel's",
        "cumulative_distance_km": 72.086
      }
    },
    {
      "type": "Feature",
      "geometry": {
        "type": "Point",
        "coordinates": [
          -71.150271,
          42.348948
        ]
      },
      "properties": {
        "type": "station",
        "stop_number": 158,
        "name": "Brighton Center - Washington St at Cambridge St",
        "cumulative_distance_km": 72.546
      }
    },
    {
      "type": "Feature",
      "geometry": {
        "type": "Point",
        "coordinates": [
          -71.146735,
          42.357329
        ]
      },
      "properties": {
        "type": "station",
        "stop_number": 159,
        "name": "New Balance - 20 Guest St",
        "cumulative_distance_km": 73.522
      }
    },
    {
      "type": "Feature",
      "geometry": {
        "type": "Point",
        "coordinates": [
          -71.141675,
          42.35656
        ]
      },
      "properties": {
        "type": "station",
        "stop_number": 160,
        "name": "Boston Landing",
        "cumulative_distance_km": 73.946
      }
    },
    {
      "type": "Feature",
      "geometry": {
        "type": "Point",
        "coordinates": [
          -71.137313,
          42.353334
        ]
      },
      "properties": {
        "type": "station",
        "stop_number": 161,
        "name": "Union Square - Brighton Ave at Cambridge St",
        "cumulative_distance_km": 74.454
      }
    },
    {
      "type": "Feature",
      "geometry": {
        "type": "Point",
        "coordinates": [
          -71.128513,
          42.357651
        ]
      },
      "properties": {
        "type": "station",
        "stop_number": 162,
        "name": "Lincoln St at Empire St",
        "cumulative_distance_km": 75.321
      }
    },
    {
      "type": "Feature",
      "geometry": {
        "type": "Point",
        "coordinates": [
          -71.128524,
          42.360273
        ]
      },
      "properties": {
        "type": "station",
        "stop_number": 163,
        "name": "Honan Library",
        "cumulative_distance_km": 75.613
      }
    },
    {
      "type": "Feature",
      "geometry": {
        "type": "Point",
        "coordinates": [
          -71.125045,
          42.36306
        ]
      },
      "properties": {
        "type": "station",
        "stop_number": 164,
        "name": "Stadium Rd at Western Ave",
        "cumulative_distance_km": 76.035
      }
    },
    {
      "type": "Feature",
      "geometry": {
        "type": "Point",
        "coordinates": [
          -71.124597,
          42.363712
        ]
      },
      "properties": {
        "type": "station",
        "stop_number": 165,
        "name": "Innovation Lab - 125 Western Ave at Batten Way",
        "cumulative_distance_km": 76.116
      }
    },
    {
      "type": "Feature",
      "geometry": {
        "type": "Point",
        "coordinates": [
          -71.14506,
          42.361558
        ]
      },
      "properties": {
        "type": "station",
        "stop_number": 166,
        "name": "Western Ave at Leo Birmingham Pkwy",
        "cumulative_distance_km": 77.814
      }
    },
    {
      "type": "Feature",
      "geometry": {
        "type": "Point",
        "coordinates": [
          -71.151786,
          42.363675
        ]
      },
      "properties": {
        "type": "station",
        "stop_number": 167,
        "name": "99 Coolidge Ave",
        "cumulative_distance_km": 78.415
      }
    },
    {
      "type": "Feature",
      "geometry": {
        "type": "Point",
        "coordinates": [
          -71.156831,
          42.372076
        ]
      },
      "properties": {
        "type": "station",
        "stop_number": 168,
        "name": "Coolidge Sq.",
        "cumulative_distance_km": 79.437
      }
    },
    {
      "type": "Feature",
      "geometry": {
        "type": "Point",
        "coordinates": [
          -71.156566,
          42.36762
        ]
      },
      "properties": {
        "type": "station",
        "stop_number": 169,
        "name": "Nichols Ave. at Watertown Greenway",
        "cumulative_distance_km": 79.933
      }
    },
    {
      "type": "Feature",
      "geometry": {
        "type": "Point",
        "coordinates": [
          -71.157648,
          42.362773
        ]
      },
      "properties": {
        "type": "station",
        "stop_number": 170,
        "name": "Arsenal Yards",
        "cumulative_distance_km": 80.479
      }
    },
    {
      "type": "Feature",
      "geometry": {
        "type": "Point",
        "coordinates": [
          -71.164216,
          42.363498
        ]
      },
      "properties": {
        "type": "station",
        "stop_number": 171,
        "name": "Arsenal on the Charles",
        "cumulative_distance_km": 81.025
      }
    },
    {
      "type": "Feature",
      "geometry": {
        "type": "Point",
        "coordinates": [
          -71.175693,
          42.364664
        ]
      },
      "properties": {
        "type": "station",
        "stop_number": 172,
        "name": "160 Arsenal St",
        "cumulative_distance_km": 81.976
      }
    },
    {
      "type": "Feature",
      "geometry": {
        "type": "Point",
        "coordinates": [
          -71.187514,
          42.367593
        ]
      },
      "properties": {
        "type": "station",
        "stop_number": 173,
        "name": "Watertown City Hall",
        "cumulative_distance_km": 83.001
      }
    },
    {
      "type": "Feature",
      "geometry": {
        "type": "Point",
        "coordinates": [
          -71.185733,
          42.36526
        ]
      },
      "properties": {
        "type": "station",
        "stop_number": 174,
        "name": "Watertown Sq",
        "cumulative_distance_km": 83.299
      }
    },
    {
      "type": "Feature",
      "geometry": {
        "type": "Point",
        "coordinates": [
          -71.18573,
          42.36428
        ]
      },
      "properties": {
        "type": "station",
        "stop_number": 175,
        "name": "Galen St at Watertown St",
        "cumulative_distance_km": 83.408
      }
    },
    {
      "type": "Feature",
      "geometry": {
        "type": "Point",
        "coordinates": [
          -71.19127,
          42.36289
        ]
      },
      "properties": {
        "type": "station",
        "stop_number": 176,
        "name": "Watertown St at 5th Ave",
        "cumulative_distance_km": 83.888
      }
    },
    {
      "type": "Feature",
      "geometry": {
        "type": "Point",
        "coordinates": [
          -71.20236,
          42.365148
        ]
      },
      "properties": {
        "type": "station",
        "stop_number": 177,
        "name": "California at Chapel",
        "cumulative_distance_km": 84.833
      }
    },
    {
      "type": "Feature",
      "geometry": {
        "type": "Point",
        "coordinates": [
          -71.201461,
          42.360684
        ]
      },
      "properties": {
        "type": "station",
        "stop_number": 178,
        "name": "Nonantum Library",
        "cumulative_distance_km": 85.335
      }
    },
    {
      "type": "Feature",
      "geometry": {
        "type": "Point",
        "coordinates": [
          -71.186045,
          42.357119
        ]
      },
      "properties": {
        "type": "station",
        "stop_number": 179,
        "name": "Bacon St at Washington St",
        "cumulative_distance_km": 86.662
      }
    },
    {
      "type": "Feature",
      "geometry": {
        "type": "Point",
        "coordinates": [
          -71.186419,
          42.355743
        ]
      },
      "properties": {
        "type": "station",
        "stop_number": 180,
        "name": "Centre St at Washington St",
        "cumulative_distance_km": 86.819
      }
    },
    {
      "type": "Feature",
      "geometry": {
        "type": "Point",
        "coordinates": [
          -71.199437,
          42.35389
        ]
      },
      "properties": {
        "type": "station",
        "stop_number": 181,
        "name": "Washington St at Crafts St",
        "cumulative_distance_km": 87.908
      }
    },
    {
      "type": "Feature",
      "geometry": {
        "type": "Point",
        "coordinates": [
          -71.207649,
          42.351458
        ]
      },
      "properties": {
        "type": "station",
        "stop_number": 182,
        "name": "Washington St at Walnut St",
        "cumulative_distance_km": 88.635
      }
    },
    {
      "type": "Feature",
      "geometry": {
        "type": "Point",
        "coordinates": [
          -71.213822,
          42.354104
        ]
      },
      "properties": {
        "type": "station",
        "stop_number": 183,
        "name": "Watertown St at Albemarle Rd",
        "cumulative_distance_km": 89.221
      }
    },
    {
      "type": "Feature",
      "geometry": {
        "type": "Point",
        "coordinates": [
          -71.226274,
          42.3496
        ]
      },
      "properties": {
        "type": "station",
        "stop_number": 184,
        "name": "West Newton",
        "cumulative_distance_km": 90.361
      }
    },
    {
      "type": "Feature",
      "geometry": {
        "type": "Point",
        "coordinates": [
          -71.247759,
          42.348055
        ]
      },
      "properties": {
        "type": "station",
        "stop_number": 185,
        "name": "Auburndale",
        "cumulative_distance_km": 92.134
      }
    },
    {
      "type": "Feature",
      "geometry": {
        "type": "Point",
        "coordinates": [
          -71.207794,
          42.336203
        ]
      },
      "properties": {
        "type": "station",
        "stop_number": 186,
        "name": "Newton Library",
        "cumulative_distance_km": 95.674
      }
    },
    {
      "type": "Feature",
      "geometry": {
        "type": "Point",
        "coordinates": [
          -71.206684,
          42.330062
        ]
      },
      "properties": {
        "type": "station",
        "stop_number": 187,
        "name": "Beacon at Walnut",
        "cumulative_distance_km": 96.363
      }
    },
    {
      "type": "Feature",
      "geometry": {
        "type": "Point",
        "coordinates": [
          -71.206372,
          42.322065
        ]
      },
      "properties": {
        "type": "station",
        "stop_number": 188,
        "name": "Newton Highlands T",
        "cumulative_distance_km": 97.252
      }
    },
    {
      "type": "Feature",
      "geometry": {
        "type": "Point",
        "coordinates": [
          -71.193701,
          42.329607
        ]
      },
      "properties": {
        "type": "station",
        "stop_number": 189,
        "name": "Union St at Herrick Rd",
        "cumulative_distance_km": 98.589
      }
    },
    {
      "type": "Feature",
      "geometry": {
        "type": "Point",
        "coordinates": [
          -71.193442,
          42.336235
        ]
      },
      "properties": {
        "type": "station",
        "stop_number": 190,
        "name": "Centre St at Commonwealth Ave",
        "cumulative_distance_km": 99.327
      }
    },
    {
      "type": "Feature",
      "geometry": {
        "type": "Point",
        "coordinates": [
          -71.167089,
          42.339878
        ]
      },
      "properties": {
        "type": "station",
        "stop_number": 191,
        "name": "Boston College T",
        "cumulative_distance_km": 101.53
      }
    },
    {
      "type": "Feature",
      "geometry": {
        "type": "Point",
        "coordinates": [
          -71.166491,
          42.35057
        ]
      },
      "properties": {
        "type": "station",
        "stop_number": 192,
        "name": "Oak Square - 615 Washington St",
        "cumulative_distance_km": 102.72
      }
    },
    {
      "type": "Feature",
      "geometry": {
        "type": "Point",
        "coordinates": [
          -71.160316,
          42.348952
        ]
      },
      "properties": {
        "type": "station",
        "stop_number": 193,
        "name": "Washington St at Brock St",
        "cumulative_distance_km": 103.259
      }
    },
    {
      "type": "Feature",
      "geometry": {
        "type": "Point",
        "coordinates": [
          -71.153257,
          42.343706
        ]
      },
      "properties": {
        "type": "station",
        "stop_number": 194,
        "name": "Chestnut Hill Ave at Ledgemere Rd",
        "cumulative_distance_km": 104.081
      }
    },
    {
      "type": "Feature",
      "geometry": {
        "type": "Point",
        "coordinates": [
          -71.151688,
          42.340246
        ]
      },
      "properties": {
        "type": "station",
        "stop_number": 195,
        "name": "Commonwealth Ave at Chiswick Rd",
        "cumulative_distance_km": 104.487
      }
    },
    {
      "type": "Feature",
      "geometry": {
        "type": "Point",
        "coordinates": [
          -71.150615,
          42.335543
        ]
      },
      "properties": {
        "type": "station",
        "stop_number": 196,
        "name": "Cleveland Circle",
        "cumulative_distance_km": 105.017
      }
    },
    {
      "type": "Feature",
      "geometry": {
        "type": "Point",
        "coordinates": [
          -71.138946,
          42.338266
        ]
      },
      "properties": {
        "type": "station",
        "stop_number": 197,
        "name": "Beacon St at Tappan St",
        "cumulative_distance_km": 106.023
      }
    },
    {
      "type": "Feature",
      "geometry": {
        "type": "Point",
        "coordinates": [
          -71.134211,
          42.339858
        ]
      },
      "properties": {
        "type": "station",
        "stop_number": 198,
        "name": "Washington Sq",
        "cumulative_distance_km": 106.451
      }
    },
    {
      "type": "Feature",
      "geometry": {
        "type": "Point",
        "coordinates": [
          -71.120464,
          42.333764
        ]
      },
      "properties": {
        "type": "station",
        "stop_number": 199,
        "name": "Brookline Town Hall",
        "cumulative_distance_km": 107.768
      }
    },
    {
      "type": "Feature",
      "geometry": {
        "type": "Point",
        "coordinates": [
          -71.126883,
          42.33137
        ]
      },
      "properties": {
        "type": "station",
        "stop_number": 200,
        "name": "Tappan St at Brookline Hills MBTA",
        "cumulative_distance_km": 108.359
      }
    },
    {
      "type": "Feature",
      "geometry": {
        "type": "Point",
        "coordinates": [
          -71.125362,
          42.327843
        ]
      },
      "properties": {
        "type": "station",
        "stop_number": 201,
        "name": "Cypress St at Clark Playground",
        "cumulative_distance_km": 108.771
      }
    },
    {
      "type": "Feature",
      "geometry": {
        "type": "Point",
        "coordinates": [
          -71.121352,
          42.324645
        ]
      },
      "properties": {
        "type": "station",
        "stop_number": 202,
        "name": "High St at Cypress St",
        "cumulative_distance_km": 109.256
      }
    },
    {
      "type": "Feature",
      "geometry": {
        "type": "Point",
        "coordinates": [
          -71.116483,
          42.321251
        ]
      },
      "properties": {
        "type": "station",
        "stop_number": 203,
        "name": "Jamaicaway at Perkins St",
        "cumulative_distance_km": 109.806
      }
    },
    {
      "type": "Feature",
      "geometry": {
        "type": "Point",
        "coordinates": [
          -71.110891,
          42.327603
        ]
      },
      "properties": {
        "type": "station",
        "stop_number": 204,
        "name": "S Huntington Ave at Heath St",
        "cumulative_distance_km": 110.649
      }
    },
    {
      "type": "Feature",
      "geometry": {
        "type": "Point",
        "coordinates": [
          -71.109841,
          42.321765
        ]
      },
      "properties": {
        "type": "station",
        "stop_number": 205,
        "name": "Hyde Square - Centre St at Perkins St",
        "cumulative_distance_km": 111.304
      }
    },
    {
      "type": "Feature",
      "geometry": {
        "type": "Point",
        "coordinates": [
          -71.10196,
          42.324173
        ]
      },
      "properties": {
        "type": "station",
        "stop_number": 206,
        "name": "Martha Eliot Health Center",
        "cumulative_distance_km": 112.005
      }
    },
    {
      "type": "Feature",
      "geometry": {
        "type": "Point",
        "coordinates": [
          -71.100141,
          42.322931
        ]
      },
      "properties": {
        "type": "station",
        "stop_number": 207,
        "name": "Jackson Square T Stop",
        "cumulative_distance_km": 112.208
      }
    },
    {
      "type": "Feature",
      "geometry": {
        "type": "Point",
        "coordinates": [
          -71.09126,
          42.321438
        ]
      },
      "properties": {
        "type": "station",
        "stop_number": 208,
        "name": "MLK Blvd at Washington St",
        "cumulative_distance_km": 112.957
      }
    },
    {
      "type": "Feature",
      "geometry": {
        "type": "Point",
        "coordinates": [
          -71.083235,
          42.324081
        ]
      },
      "properties": {
        "type": "station",
        "stop_number": 209,
        "name": "Walnut Ave at Warren St",
        "cumulative_distance_km": 113.679
      }
    },
    {
      "type": "Feature",
      "geometry": {
        "type": "Point",
        "coordinates": [
          -71.091946,
          42.316902
        ]
      },
      "properties": {
        "type": "station",
        "stop_number": 210,
        "name": "NCAAA - Walnut Ave at Crawford St",
        "cumulative_distance_km": 114.752
      }
    },
    {
      "type": "Feature",
      "geometry": {
        "type": "Point",
        "coordinates": [
          -71.096399,
          42.319309
        ]
      },
      "properties": {
        "type": "station",
        "stop_number": 211,
        "name": "The Dimock Center",
        "cumulative_distance_km": 115.205
      }
    },
    {
      "type": "Feature",
      "geometry": {
        "type": "Point",
        "coordinates": [
          -71.098634,
          42.315692
        ]
      },
      "properties": {
        "type": "station",
        "stop_number": 212,
        "name": "Egleston Square - Atherton St at Washington St",
        "cumulative_distance_km": 115.647
      }
    },
    {
      "type": "Feature",
      "geometry": {
        "type": "Point",
        "coordinates": [
          -71.104374,
          42.316966
        ]
      },
      "properties": {
        "type": "station",
        "stop_number": 213,
        "name": "Stony Brook T Stop",
        "cumulative_distance_km": 116.14
      }
    },
    {
      "type": "Feature",
      "geometry": {
        "type": "Point",
        "coordinates": [
          -71.107341,
          42.310579
        ]
      },
      "properties": {
        "type": "station",
        "stop_number": 214,
        "name": "Green Street T Stop - Green St at Amory St",
        "cumulative_distance_km": 116.891
      }
    },
    {
      "type": "Feature",
      "geometry": {
        "type": "Point",
        "coordinates": [
          -71.11405,
          42.31358
        ]
      },
      "properties": {
        "type": "station",
        "stop_number": 215,
        "name": "Centre St at Seaverns Ave",
        "cumulative_distance_km": 117.536
      }
    },
    {
      "type": "Feature",
      "geometry": {
        "type": "Point",
        "coordinates": [
          -71.11543,
          42.309054
        ]
      },
      "properties": {
        "type": "station",
        "stop_number": 216,
        "name": "Curtis Hall - South St at Centre St",
        "cumulative_distance_km": 118.052
      }
    },
    {
      "type": "Feature",
      "geometry": {
        "type": "Point",
        "coordinates": [
          -71.115708,
          42.306045
        ]
      },
      "properties": {
        "type": "station",
        "stop_number": 217,
        "name": "Jamaica St at South St",
        "cumulative_distance_km": 118.387
      }
    },
    {
      "type": "Feature",
      "geometry": {
        "type": "Point",
        "coordinates": [
          -71.107669,
          42.306539
        ]
      },
      "properties": {
        "type": "station",
        "stop_number": 218,
        "name": "Williams St at Washington St",
        "cumulative_distance_km": 119.051
      }
    },
    {
      "type": "Feature",
      "geometry": {
        "type": "Point",
        "coordinates": [
          -71.096169,
          42.312423
        ]
      },
      "properties": {
        "type": "station",
        "stop_number": 219,
        "name": "Walnut Ave at School St",
        "cumulative_distance_km": 120.2
      }
    },
    {
      "type": "Feature",
      "geometry": {
        "type": "Point",
        "coordinates": [
          -71.092225,
          42.309796
        ]
      },
      "properties": {
        "type": "station",
        "stop_number": 220,
        "name": "Franklin Park - Seaver St at Humboldt Ave",
        "cumulative_distance_km": 120.637
      }
    },
    {
      "type": "Feature",
      "geometry": {
        "type": "Point",
        "coordinates": [
          -71.085347,
          42.303469
        ]
      },
      "properties": {
        "type": "station",
        "stop_number": 221,
        "name": "Franklin Park Zoo - Franklin Park Rd at Blue Hill Ave",
        "cumulative_distance_km": 121.54
      }
    },
    {
      "type": "Feature",
      "geometry": {
        "type": "Point",
        "coordinates": [
          -71.078209,
          42.303215
        ]
      },
      "properties": {
        "type": "station",
        "stop_number": 222,
        "name": "Four Corners/Geneva T Stop",
        "cumulative_distance_km": 122.127
      }
    },
    {
      "type": "Feature",
      "geometry": {
        "type": "Point",
        "coordinates": [
          -71.079295,
          42.304127
        ]
      },
      "properties": {
        "type": "station",
        "stop_number": 223,
        "name": "Four Corners - 157 Washington St",
        "cumulative_distance_km": 122.262
      }
    },
    {
      "type": "Feature",
      "geometry": {
        "type": "Point",
        "coordinates": [
          -71.080952,
          42.30791
        ]
      },
      "properties": {
        "type": "station",
        "stop_number": 224,
        "name": "Grove Hall Library - 41 Geneva Ave",
        "cumulative_distance_km": 122.705
      }
    },
    {
      "type": "Feature",
      "geometry": {
        "type": "Point",
        "coordinates": [
          -71.08243,
          42.317873
        ]
      },
      "properties": {
        "type": "station",
        "stop_number": 225,
        "name": "Roxbury YMCA - Warren St at MLK Blvd",
        "cumulative_distance_km": 123.819
      }
    },
    {
      "type": "Feature",
      "geometry": {
        "type": "Point",
        "coordinates": [
          -71.077986,
          42.31786
        ]
      },
      "properties": {
        "type": "station",
        "stop_number": 226,
        "name": "Blue Hill Ave at Southwood St",
        "cumulative_distance_km": 124.185
      }
    },
    {
      "type": "Feature",
      "geometry": {
        "type": "Point",
        "coordinates": [
          -71.0729,
          42.309572
        ]
      },
      "properties": {
        "type": "station",
        "stop_number": 227,
        "name": "Columbia Rd at Ceylon St",
        "cumulative_distance_km": 125.197
      }
    },
    {
      "type": "Feature",
      "geometry": {
        "type": "Point",
        "coordinates": [
          -71.060689,
          42.299633
        ]
      },
      "properties": {
        "type": "station",
        "stop_number": 228,
        "name": "Fields Corner T Stop",
        "cumulative_distance_km": 126.69
      }
    },
    {
      "type": "Feature",
      "geometry": {
        "type": "Point",
        "coordinates": [
          -71.06575,
          42.292917
        ]
      },
      "properties": {
        "type": "station",
        "stop_number": 229,
        "name": "Shawmut T Stop",
        "cumulative_distance_km": 127.545
      }
    },
    {
      "type": "Feature",
      "geometry": {
        "type": "Point",
        "coordinates": [
          -71.071806,
          42.290333
        ]
      },
      "properties": {
        "type": "station",
        "stop_number": 230,
        "name": "Washington St at Talbot Ave",
        "cumulative_distance_km": 128.12
      }
    },
    {
      "type": "Feature",
      "geometry": {
        "type": "Point",
        "coordinates": [
          -71.071111,
          42.287361
        ]
      },
      "properties": {
        "type": "station",
        "stop_number": 231,
        "name": "Codman Square Library",
        "cumulative_distance_km": 128.455
      }
    },
    {
      "type": "Feature",
      "geometry": {
        "type": "Point",
        "coordinates": [
          -71.071479,
          42.281986
        ]
      },
      "properties": {
        "type": "station",
        "stop_number": 232,
        "name": "Washington St at Fuller St",
        "cumulative_distance_km": 129.054
      }
    },
    {
      "type": "Feature",
      "geometry": {
        "type": "Point",
        "coordinates": [
          -71.064138,
          42.285694
        ]
      },
      "properties": {
        "type": "station",
        "stop_number": 233,
        "name": "Ashmont T Stop",
        "cumulative_distance_km": 129.785
      }
    },
    {
      "type": "Feature",
      "geometry": {
        "type": "Point",
        "coordinates": [
          -71.062571,
          42.291718
        ]
      },
      "properties": {
        "type": "station",
        "stop_number": 234,
        "name": "Dorchester Ave at King St",
        "cumulative_distance_km": 130.467
      }
    },
    {
      "type": "Feature",
      "geometry": {
        "type": "Point",
        "coordinates": [
          -71.056746,
          42.290891
        ]
      },
      "properties": {
        "type": "station",
        "stop_number": 235,
        "name": "Adams St at Mallet St.",
        "cumulative_distance_km": 130.955
      }
    },
    {
      "type": "Feature",
      "geometry": {
        "type": "Point",
        "coordinates": [
          -71.054666,
          42.282975
        ]
      },
      "properties": {
        "type": "station",
        "stop_number": 236,
        "name": "Gallivan Blvd at Adams St",
        "cumulative_distance_km": 131.852
      }
    },
    {
      "type": "Feature",
      "geometry": {
        "type": "Point",
        "coordinates": [
          -71.046085,
          42.279774
        ]
      },
      "properties": {
        "type": "station",
        "stop_number": 237,
        "name": "Pope John Paul II Park - Neponset Trail at Hallet St",
        "cumulative_distance_km": 132.642
      }
    },
    {
      "type": "Feature",
      "geometry": {
        "type": "Point",
        "coordinates": [
          -71.060221,
          42.279607
        ]
      },
      "properties": {
        "type": "station",
        "stop_number": 238,
        "name": "Cedar Grove T Stop",
        "cumulative_distance_km": 133.805
      }
    },
    {
      "type": "Feature",
      "geometry": {
        "type": "Point",
        "coordinates": [
          -71.062882,
          42.272548
        ]
      },
      "properties": {
        "type": "station",
        "stop_number": 239,
        "name": "Butler T Stop",
        "cumulative_distance_km": 134.62
      }
    },
    {
      "type": "Feature",
      "geometry": {
        "type": "Point",
        "coordinates": [
          -71.073379,
          42.270947
        ]
      },
      "properties": {
        "type": "station",
        "stop_number": 240,
        "name": "Central Ave at River St",
        "cumulative_distance_km": 135.502
      }
    },
    {
      "type": "Feature",
      "geometry": {
        "type": "Point",
        "coordinates": [
          -71.069556,
          42.277194
        ]
      },
      "properties": {
        "type": "station",
        "stop_number": 241,
        "name": "Washington St at Walsh Playground",
        "cumulative_distance_km": 136.265
      }
    },
    {
      "type": "Feature",
      "geometry": {
        "type": "Point",
        "coordinates": [
          -71.080286,
          42.278747
        ]
      },
      "properties": {
        "type": "station",
        "stop_number": 242,
        "name": "Morton St at Gallivan Blvd",
        "cumulative_distance_km": 137.164
      }
    },
    {
      "type": "Feature",
      "geometry": {
        "type": "Point",
        "coordinates": [
          -71.079429,
          42.286212
        ]
      },
      "properties": {
        "type": "station",
        "stop_number": 243,
        "name": "Thetford Ave at Norfolk St",
        "cumulative_distance_km": 137.997
      }
    },
    {
      "type": "Feature",
      "geometry": {
        "type": "Point",
        "coordinates": [
          -71.086172,
          42.280725
        ]
      },
      "properties": {
        "type": "station",
        "stop_number": 244,
        "name": "Morton St T",
        "cumulative_distance_km": 138.822
      }
    },
    {
      "type": "Feature",
      "geometry": {
        "type": "Point",
        "coordinates": [
          -71.095003,
          42.28887
        ]
      },
      "properties": {
        "type": "station",
        "stop_number": 245,
        "name": "2 Hummingbird Lane at Olmsted Green",
        "cumulative_distance_km": 139.983
      }
    },
    {
      "type": "Feature",
      "geometry": {
        "type": "Point",
        "coordinates": [
          -71.090986,
          42.286012
        ]
      },
      "properties": {
        "type": "station",
        "stop_number": 246,
        "name": "Blue Hill Ave at Havelock St",
        "cumulative_distance_km": 140.441
      }
    },
    {
      "type": "Feature",
      "geometry": {
        "type": "Point",
        "coordinates": [
          -71.09325,
          42.277388
        ]
      },
      "properties": {
        "type": "station",
        "stop_number": 247,
        "name": "Mattapan Library",
        "cumulative_distance_km": 141.418
      }
    },
    {
      "type": "Feature",
      "geometry": {
        "type": "Point",
        "coordinates": [
          -71.093725,
          42.27462
        ]
      },
      "properties": {
        "type": "station",
        "stop_number": 248,
        "name": "Blue Hill Ave at Almont St",
        "cumulative_distance_km": 141.728
      }
    },
    {
      "type": "Feature",
      "geometry": {
        "type": "Point",
        "coordinates": [
          -71.097461,
          42.269988
        ]
      },
      "properties": {
        "type": "station",
        "stop_number": 249,
        "name": "Cummins Highway at Blue Hill Ave T Stop",
        "cumulative_distance_km": 142.328
      }
    },
    {
      "type": "Feature",
      "geometry": {
        "type": "Point",
        "coordinates": [
          -71.093641,
          42.267902
        ]
      },
      "properties": {
        "type": "station",
        "stop_number": 250,
        "name": "Mattapan T Stop",
        "cumulative_distance_km": 142.719
      }
    },
    {
      "type": "Feature",
      "geometry": {
        "type": "Point",
        "coordinates": [
          -71.118358,
          42.252287
        ]
      },
      "properties": {
        "type": "station",
        "stop_number": 251,
        "name": "Truman Parkway at Fairmount Ave",
        "cumulative_distance_km": 145.393
      }
    },
    {
      "type": "Feature",
      "geometry": {
        "type": "Point",
        "coordinates": [
          -71.12444,
          42.2556
        ]
      },
      "properties": {
        "type": "station",
        "stop_number": 252,
        "name": "Cleary Sq",
        "cumulative_distance_km": 146.015
      }
    },
    {
      "type": "Feature",
      "geometry": {
        "type": "Point",
        "coordinates": [
          -71.122509,
          42.256837
        ]
      },
      "properties": {
        "type": "station",
        "stop_number": 253,
        "name": "Hyde Park Library",
        "cumulative_distance_km": 146.225
      }
    },
    {
      "type": "Feature",
      "geometry": {
        "type": "Point",
        "coordinates": [
          -71.121631,
          42.262867
        ]
      },
      "properties": {
        "type": "station",
        "stop_number": 254,
        "name": "Hyde Park Ave at Arlington St",
        "cumulative_distance_km": 146.899
      }
    },
    {
      "type": "Feature",
      "geometry": {
        "type": "Point",
        "coordinates": [
          -71.114552,
          42.264566
        ]
      },
      "properties": {
        "type": "station",
        "stop_number": 255,
        "name": "Ross Playground",
        "cumulative_distance_km": 147.512
      }
    },
    {
      "type": "Feature",
      "geometry": {
        "type": "Point",
        "coordinates": [
          -71.11924,
          42.2681
        ]
      },
      "properties": {
        "type": "station",
        "stop_number": 256,
        "name": "555 Metropolitan Ave",
        "cumulative_distance_km": 148.062
      }
    },
    {
      "type": "Feature",
      "geometry": {
        "type": "Point",
        "coordinates": [
          -71.119903,
          42.272653
        ]
      },
      "properties": {
        "type": "station",
        "stop_number": 257,
        "name": "American Legion Hwy at Hyde Park Ave",
        "cumulative_distance_km": 148.572
      }
    },
    {
      "type": "Feature",
      "geometry": {
        "type": "Point",
        "coordinates": [
          -71.116877,
          42.278811
        ]
      },
      "properties": {
        "type": "station",
        "stop_number": 258,
        "name": "American Legion Hwy at Cummins Hwy",
        "cumulative_distance_km": 149.3
      }
    },
    {
      "type": "Feature",
      "geometry": {
        "type": "Point",
        "coordinates": [
          -71.109725,
          42.28578
        ]
      },
      "properties": {
        "type": "station",
        "stop_number": 259,
        "name": "606 American Legion Hwy at Canterbury St",
        "cumulative_distance_km": 150.273
      }
    },
    {
      "type": "Feature",
      "geometry": {
        "type": "Point",
        "coordinates": [
          -71.118745,
          42.284844
        ]
      },
      "properties": {
        "type": "station",
        "stop_number": 260,
        "name": "Mt. Hope St at Hyde Park Ave",
        "cumulative_distance_km": 151.022
      }
    },
    {
      "type": "Feature",
      "geometry": {
        "type": "Point",
        "coordinates": [
          -71.117736,
          42.29118
        ]
      },
      "properties": {
        "type": "station",
        "stop_number": 261,
        "name": "Northbourne Rd at Hyde Park Ave",
        "cumulative_distance_km": 151.732
      }
    },
    {
      "type": "Feature",
      "geometry": {
        "type": "Point",
        "coordinates": [
          -71.116011,
          42.296067
        ]
      },
      "properties": {
        "type": "station",
        "stop_number": 262,
        "name": "Hyde Park Ave at Walk Hill St",
        "cumulative_distance_km": 152.293
      }
    },
    {
      "type": "Feature",
      "geometry": {
        "type": "Point",
        "coordinates": [
          -71.121195,
          42.292665
        ]
      },
      "properties": {
        "type": "station",
        "stop_number": 263,
        "name": "Archdale Rd at Washington St",
        "cumulative_distance_km": 152.863
      }
    },
    {
      "type": "Feature",
      "geometry": {
        "type": "Point",
        "coordinates": [
          -71.127754,
          42.287072
        ]
      },
      "properties": {
        "type": "station",
        "stop_number": 264,
        "name": "Roslindale Village - South St",
        "cumulative_distance_km": 153.687
      }
    },
    {
      "type": "Feature",
      "geometry": {
        "type": "Point",
        "coordinates": [
          -71.128205,
          42.286307
        ]
      },
      "properties": {
        "type": "station",
        "stop_number": 265,
        "name": "Roslindale Village - Washington St",
        "cumulative_distance_km": 153.78
      }
    },
    {
      "type": "Feature",
      "geometry": {
        "type": "Point",
        "coordinates": [
          -71.134237,
          42.280728
        ]
      },
      "properties": {
        "type": "station",
        "stop_number": 266,
        "name": "Washington St at Denton Terr",
        "cumulative_distance_km": 154.574
      }
    },
    {
      "type": "Feature",
      "geometry": {
        "type": "Point",
        "coordinates": [
          -71.136721,
          42.286345
        ]
      },
      "properties": {
        "type": "station",
        "stop_number": 267,
        "name": "Belgrade Ave at Walworth St",
        "cumulative_distance_km": 155.231
      }
    },
    {
      "type": "Feature",
      "geometry": {
        "type": "Point",
        "coordinates": [
          -71.147221,
          42.28593
        ]
      },
      "properties": {
        "type": "station",
        "stop_number": 268,
        "name": "Bellevue T Stop",
        "cumulative_distance_km": 156.096
      }
    },
    {
      "type": "Feature",
      "geometry": {
        "type": "Point",
        "coordinates": [
          -71.153447,
          42.286331
        ]
      },
      "properties": {
        "type": "station",
        "stop_number": 269,
        "name": "Centre St at W. Roxbury Post Office",
        "cumulative_distance_km": 156.61
      }
    },
    {
      "type": "Feature",
      "geometry": {
        "type": "Point",
        "coordinates": [
          -71.163414,
          42.277484
        ]
      },
      "properties": {
        "type": "station",
        "stop_number": 270,
        "name": "Spring St at Powell St",
        "cumulative_distance_km": 157.891
      }
    },
    {
      "type": "Feature",
      "geometry": {
        "type": "Point",
        "coordinates": [
          -71.157288,
          42.282779
        ]
      },
      "properties": {
        "type": "station",
        "stop_number": 271,
        "name": "Centre St at Parkway YMCA",
        "cumulative_distance_km": 158.666
      }
    },
    {
      "type": "Feature",
      "geometry": {
        "type": "Point",
        "coordinates": [
          -71.136565,
          42.293766
        ]
      },
      "properties": {
        "type": "station",
        "stop_number": 272,
        "name": "Knoll St at Centre St",
        "cumulative_distance_km": 160.763
      }
    },
    {
      "type": "Feature",
      "geometry": {
        "type": "Point",
        "coordinates": [
          -71.127436,
          42.300806
        ]
      },
      "properties": {
        "type": "station",
        "stop_number": 273,
        "name": "Centre St at Allandale St",
        "cumulative_distance_km": 161.848
      }
    },
    {
      "type": "Feature",
      "geometry": {
        "type": "Point",
        "coordinates": [
          -71.114249,
          42.300923
        ]
      },
      "properties": {
        "type": "station",
        "stop_number": 274,
        "name": "Forest Hills",
        "cumulative_distance_km": 162.932
      }
    },
    {
      "type": "Feature",
      "geometry": {
        "type": "Point",
        "coordinates": [
          -71.091719,
          42.297041
        ]
      },
      "properties": {
        "type": "station",
        "stop_number": 275,
        "name": "Circuit Drive at American Legion Hwy",
        "cumulative_distance_km": 164.835
      }
    },
    {
      "type": "Feature",
      "geometry": {
        "type": "Point",
        "coordinates": [
          -71.087111,
          42.294583
        ]
      },
      "properties": {
        "type": "station",
        "stop_number": 276,
        "name": "Talbot Ave At Blue Hill Ave",
        "cumulative_distance_km": 165.302
      }
    },
    {
      "type": "Feature",
      "geometry": {
        "type": "Point",
        "coordinates": [
          -71.077972,
          42.292251
        ]
      },
      "properties": {
        "type": "station",
        "stop_number": 277,
        "name": "Talbot Ave T Station",
        "cumulative_distance_km": 166.097
      }
    },
    {
      "type": "Feature",
      "geometry": {
        "type": "Point",
        "coordinates": [
          -71.078217,
          42.294425
        ]
      },
      "properties": {
        "type": "station",
        "stop_number": 278,
        "name": "Park St at Norwell St",
        "cumulative_distance_km": 166.34
      }
    },
    {
      "type": "Feature",
      "geometry": {
        "type": "Point",
        "coordinates": [
          -71.073458,
          42.299164
        ]
      },
      "properties": {
        "type": "station",
        "stop_number": 279,
        "name": "Washington St at Bowdoin St",
        "cumulative_distance_km": 166.996
      }
    },
    {
      "type": "Feature",
      "geometry": {
        "type": "Point",
        "coordinates": [
          -71.065122,
          42.307852
        ]
      },
      "properties": {
        "type": "station",
        "stop_number": 280,
        "name": "Bowdoin St at Quincy St",
        "cumulative_distance_km": 168.181
      }
    },
    {
      "type": "Feature",
      "geometry": {
        "type": "Point",
        "coordinates": [
          -71.060199,
          42.309819
        ]
      },
      "properties": {
        "type": "station",
        "stop_number": 281,
        "name": "Hancock St at Pleasant St",
        "cumulative_distance_km": 168.641
      }
    },
    {
      "type": "Feature",
      "geometry": {
        "type": "Point",
        "coordinates": [
          -71.054259,
          42.303674
        ]
      },
      "properties": {
        "type": "station",
        "stop_number": 282,
        "name": "Beach St at Freeport St",
        "cumulative_distance_km": 169.481
      }
    },
    {
      "type": "Feature",
      "geometry": {
        "type": "Point",
        "coordinates": [
          -71.047186,
          42.295305
        ]
      },
      "properties": {
        "type": "station",
        "stop_number": 283,
        "name": "780 Morrissey Blvd",
        "cumulative_distance_km": 170.578
      }
    },
    {
      "type": "Feature",
      "geometry": {
        "type": "Point",
        "coordinates": [
          -71.0539,
          42.3106
        ]
      },
      "properties": {
        "type": "station",
        "stop_number": 284,
        "name": "Savin Hill T Stop - S Sydney St at Bay St",
        "cumulative_distance_km": 172.367
      }
    },
    {
      "type": "Feature",
      "geometry": {
        "type": "Point",
        "coordinates": [
          -71.036485,
          42.312189
        ]
      },
      "properties": {
        "type": "station",
        "stop_number": 285,
        "name": "University of Massachusetts Boston - Campus Center",
        "cumulative_distance_km": 173.809
      }
    },
    {
      "type": "Feature",
      "geometry": {
        "type": "Point",
        "coordinates": [
          -71.045367,
          42.318864
        ]
      },
      "properties": {
        "type": "station",
        "stop_number": 286,
        "name": "Geiger Gibson Community Health Center",
        "cumulative_distance_km": 174.851
      }
    },
    {
      "type": "Feature",
      "geometry": {
        "type": "Point",
        "coordinates": [
          -71.049142,
          42.32586
        ]
      },
      "properties": {
        "type": "station",
        "stop_number": 287,
        "name": "Bike Town at Moakley Park",
        "cumulative_distance_km": 175.688
      }
    },
    {
      "type": "Feature",
      "geometry": {
        "type": "Point",
        "coordinates": [
          -71.0506,
          42.33023
        ]
      },
      "properties": {
        "type": "station",
        "stop_number": 288,
        "name": "Columbia Rd at Tierney Community Center",
        "cumulative_distance_km": 176.189
      }
    },
    {
      "type": "Feature",
      "geometry": {
        "type": "Point",
        "coordinates": [
          -71.02495,
          42.3334
        ]
      },
      "properties": {
        "type": "station",
        "stop_number": 289,
        "name": "Farragut Rd at E. 6th St",
        "cumulative_distance_km": 178.326
      }
    },
    {
      "type": "Feature",
      "geometry": {
        "type": "Point",
        "coordinates": [
          -71.023739,
          42.336448
        ]
      },
      "properties": {
        "type": "station",
        "stop_number": 290,
        "name": "Murphy Skating Rink - 1880 Day Blvd",
        "cumulative_distance_km": 178.68
      }
    },
    {
      "type": "Feature",
      "geometry": {
        "type": "Point",
        "coordinates": [
          -71.03877,
          42.335741
        ]
      },
      "properties": {
        "type": "station",
        "stop_number": 291,
        "name": "South Boston Library - 646 E Broadway",
        "cumulative_distance_km": 179.918
      }
    },
    {
      "type": "Feature",
      "geometry": {
        "type": "Point",
        "coordinates": [
          -71.046228,
          42.335958
        ]
      },
      "properties": {
        "type": "station",
        "stop_number": 292,
        "name": "W Broadway at Dorchester St",
        "cumulative_distance_km": 180.531
      }
    },
    {
      "type": "Feature",
      "geometry": {
        "type": "Point",
        "coordinates": [
          -71.054241,
          42.332482
        ]
      },